[
  {
    "place_id": "ChIJnepQB1XGQIYRy455cw3qD-Q",
    "name": "Air Tech of Houston AC & Plumbing",
    "address": "2114 Lou Ellen Ln, Houston, TX 77018, USA",
    "phone": "(832) 680-5546",
    "website": "https://www.airtechofhouston.com/?utm_source=google-gbp&utm_medium=organic&utm_campaign=*19*air-tech-houston",
    "rating": 4.9,
    "reviews": 5459,
    "lat": 29.8186339,
    "lng": -95.4384587,
    "types": "electrician, establishment, general_contractor, plumber, point_of_interest, store"
  },
  {
    "place_id": "ChIJdfmiteHQQIYRKwSRVsFsZCQ",
    "name": "All Star A/C, Plumbing & Electrical",
    "address": "9418 Mills Rd, Houston, TX 77070, USA",
    "phone": "(713) 842-9532",
    "website": "https://allstarairtexas.com/",
    "rating": 4.9,
    "reviews": 1704,
    "lat": 29.9577449,
    "lng": -95.5601894,
    "types": "electrician, establishment, general_contractor, plumber, point_of_interest"
  },
  {
    "place_id": "ChIJEepVcD3CQIYRjooOXE69VmE",
    "name": "Bellaire Air Conditioning",
    "address": "5414 Ashbrook Dr, Houston, TX 77081, USA",
    "phone": "(713) 428-2279",
    "website": "https://www.bellaireair.com/?utm_source=google&utm_medium=organic&utm_term=gbp",
    "rating": 4.9,
    "reviews": 403,
    "lat": 29.71512259999999,
    "lng": -95.4750368,
    "types": "establishment, general_contractor, point_of_interest"
  },
  {
    "place_id": "ChIJg6KxS3LQQIYRojXRYlc39pM",
    "name": "One Hour Air Conditioning & HeatingÂ® of Houston",
    "address": "4455 W Sam Houston Pkwy N, Houston, TX 77041, USA",
    "phone": "(281) 407-9754",
    "website": "https://www.onehourheatandair.com/houston/?utm_source=gbp&utm_medium=organic&utm_campaign=638799_-OH0248-",
    "rating": 4.8,
    "reviews": 9646,
    "lat": 29.8344753,
    "lng": -95.5654606,
    "types": "establishment, general_contractor, point_of_interest"
  },
  {
    "place_id": "ChIJOzxuebLHQIYR3BI5ClV2ftI",
    "name": "Mission Air Conditioning & Plumbing",
    "address": "1630 Elmview Dr, Houston, TX 77080, USA",
    "phone": "(281) 502-2062",
    "website": "https://www.missionac.com/locations/houston-tx/?utm_source=google&utm_medium=organic&utm_campaign=gbp",
    "rating": 4.8,
    "reviews": 2725,
    "lat": 29.8024054,
    "lng": -95.52835379999999,
    "types": "establishment, general_contractor, plumber, point_of_interest"
  },
  {
    "place_id": "ChIJIedoD87DQIYRPZ4wlN6-XmM",
    "name": "House Pro Air Conditioning",
    "address": "6115 Skyline Dr Ste D, Houston, TX 77057, USA",
    "phone": "(713) 512-5910",
    "website": "https://www.houseproac.com/?utm_source=GBP&utm_medium=organic",
    "rating": 4.7,
    "reviews": 1293,
    "lat": 29.7279425,
    "lng": -95.4890173,
    "types": "establishment, general_contractor, point_of_interest, store"
  },
  {
    "place_id": "ChIJw-63xP7RQIYRFAoCCp3fm9E",
    "name": "Excel Air",
    "address": "6125 W Sam Houston Pkwy N Suite 301, Houston, TX 77041, USA",
    "phone": "(713) 300-2803",
    "website": "http://www.excelairconditioning.com/",
    "rating": 5,
    "reviews": 429,
    "lat": 29.8565291,
    "lng": -95.56546080000001,
    "types": "establishment, general_contractor, point_of_interest"
  },
  {
    "place_id": "ChIJJ8yZOL-yQIYRCvmn6R0BcsI",
    "name": "Air Tech of Humble - Elite Comfort",
    "address": "1710 1st St E, Humble, TX 77338, USA",
    "phone": "(346) 236-1240",
    "website": "https://www.airtechofhumble.com/?utm_source=google-gbp&utm_medium=organic&utm_campaign=*20*air-tech-humble",
    "rating": 4.9,
    "reviews": 2906,
    "lat": 29.9983965,
    "lng": -95.2490613,
    "types": "establishment, general_contractor, point_of_interest"
  },
  {
    "place_id": "ChIJH7heewrPQIYRvwoatsEzkQg",
    "name": "Air Star Now",
    "address": "6607 Flintlock Rd, Houston, TX 77040, USA",
    "phone": "(713) 597-4457",
    "website": "https://www.airstarnow.com/",
    "rating": 5,
    "reviews": 418,
    "lat": 29.8626343,
    "lng": -95.5208462,
    "types": "establishment, general_contractor, point_of_interest"
  },
  {
    "place_id": "ChIJGXn8mmCcQIYRFvWPRbHfOxU",
    "name": "Service Company",
    "address": "16628 Sea Lark Rd, Houston, TX 77062, USA",
    "phone": "(281) 297-8486",
    "website": "https://championandnash.com/aircon",
    "rating": 4.7,
    "reviews": 474,
    "lat": 29.55519229999999,
    "lng": -95.1228498,
    "types": "establishment, general_contractor, point_of_interest"
  },
  {
    "place_id": "ChIJsbg-gl7PQIYRODQxSS6TEq0",
    "name": "Dave Lane's Hi-Tech Mechanical Inc.",
    "address": "15825 TX-249 Ste 15, Houston, TX 77086, USA",
    "phone": "(713) 960-4269",
    "website": "http://www.davelaneair.com/",
    "rating": 4.9,
    "reviews": 986,
    "lat": 29.940484,
    "lng": -95.52202229999999,
    "types": "establishment, general_contractor, point_of_interest"
  },
  {
    "place_id": "ChIJnZ5CFi_HQIYRozJ9aBQ14Xc",
    "name": "The Lee Thompson Co",
    "address": "1718 Elmview Dr, Houston, TX 77080, USA",
    "phone": "(713) 688-6900",
    "website": "https://www.leethompsonac.com/",
    "rating": 4.8,
    "reviews": 378,
    "lat": 29.8043887,
    "lng": -95.5282637,
    "types": "establishment, general_contractor, point_of_interest"
  },
  {
    "place_id": "ChIJkyOnywnbQIYR4fXYxg6ornY",
    "name": "Mr. Reliable Heating & Air",
    "address": "1729 Brittmoore Rd B2, Houston, TX 77043, USA",
    "phone": "(832) 263-3401",
    "website": "https://www.callmrreliable.com/?utm_source=GBP&utm_medium=organic",
    "rating": 4.9,
    "reviews": 354,
    "lat": 29.8085904,
    "lng": -95.57240689999999,
    "types": "establishment, general_contractor, point_of_interest"
  },
  {
    "place_id": "ChIJY6k1S9XFQIYROFxe1EhMiN4",
    "name": "Abacus Plumbing, Air Conditioning, & Electrical",
    "address": "4001 Kendrick Plaza Dr, Houston, TX 77032, USA",
    "phone": "(713) 812-7070",
    "website": "https://www.abacusplumbing.net/?utm_campaign=gmb_ab-hou_home_everyone_gmb-houston&utm_medium=gmb&utm_source=google",
    "rating": 4.7,
    "reviews": 11655,
    "lat": 29.9421473,
    "lng": -95.32931029999999,
    "types": "electrician, establishment, general_contractor, plumber, point_of_interest"
  },
  {
    "place_id": "ChIJ1Txfvh7bQIYRvSaK6W25YII",
    "name": "Southern Comfort Heating & Air Services",
    "address": "11111 Katy Fwy Suite 910, Houston, TX 77079, USA",
    "phone": "(832) 683-0537",
    "website": "http://scheatingair.com/",
    "rating": 4.9,
    "reviews": 258,
    "lat": 29.7837,
    "lng": -95.57817899999999,
    "types": "establishment, general_contractor, point_of_interest"
  },
  {
    "place_id": "ChIJHbpVpeq4QIYRyGn6l8eeiso",
    "name": "Master AC and Heat, LLC- The Heights",
    "address": "2607 North Fwy, Houston, TX 77009, USA",
    "phone": "(713) 750-9769",
    "website": "http://masteracandheat.com/",
    "rating": 4.8,
    "reviews": 164,
    "lat": 29.796459,
    "lng": -95.37231249999999,
    "types": "establishment, general_contractor, plumber, point_of_interest"
  },
  {
    "place_id": "ChIJIc-2aF_AQIYRJab07qEMW4A",
    "name": "Village Plumbing, Air & Electric",
    "address": "10644 W Little York Rd Suite 200, Houston, TX 77041, USA",
    "phone": "(713) 489-9048",
    "website": "https://villageplumbing.com/?utm_source=google&utm_medium=organic&utm_campaign=GMBListing-Houston-TX",
    "rating": 4.8,
    "reviews": 8931,
    "lat": 29.8677916,
    "lng": -95.5618629,
    "types": "electrician, establishment, general_contractor, plumber, point_of_interest"
  },
  {
    "place_id": "ChIJY5Z0b_POQIYR01N04Igt6Zw",
    "name": "Air Pro",
    "address": "10010 Gilson Ln, Houston, TX 77086, USA",
    "phone": "(713) 881-9880",
    "website": "https://airprohouston.com/",
    "rating": 4.7,
    "reviews": 848,
    "lat": 29.9262723,
    "lng": -95.51371429999999,
    "types": "electrician, establishment, general_contractor, point_of_interest"
  },
  {
    "place_id": "ChIJK3r5-BDHQIYRKOziRZamVEs",
    "name": "Revolution Air",
    "address": "1300 W 19th St #7827, Houston, TX 77008, USA",
    "phone": "(713) 213-4966",
    "website": "http://www.revairtx.com/",
    "rating": 4.8,
    "reviews": 124,
    "lat": 29.80218129999999,
    "lng": -95.4233225,
    "types": "establishment, general_contractor, point_of_interest"
  },
  {
    "place_id": "ChIJey2zp1vqQIYRLfg1xN_nZ_E",
    "name": "Geo Contractors LLC",
    "address": "13221 Player St Unit A, Houston, TX 77045, USA",
    "phone": "(713) 729-2665",
    "website": "http://geocontractorsllc.com/",
    "rating": 4.9,
    "reviews": 214,
    "lat": 29.634591,
    "lng": -95.4490622,
    "types": "establishment, general_contractor, plumber, point_of_interest"
  },
  {
    "place_id": "ChIJjd6Bde3bQIYRUFVogJSDdLc",
    "name": "Aire Serv of Central & West Houston",
    "address": "3100 Weslayan St Suite 232, Houston, TX 77027, USA",
    "phone": "(832) 432-7888",
    "website": "https://aireserv.com/central-west-houston/?cid=LSTL_ASV-US000187&utm_source=gmb&utm_campaign=local&utm_medium=organic",
    "rating": 4.9,
    "reviews": 192,
    "lat": 29.73691599999999,
    "lng": -95.4419929,
    "types": "establishment, general_contractor, point_of_interest"
  },
  {
    "place_id": "ChIJZ4LQK-HQQIYRx7eq0NY1TxU",
    "name": "Be Cool AC & Heating",
    "address": "7710 Cherry Park Dr Ste T418, Houston, TX 77095, USA",
    "phone": "(713) 893-5746",
    "website": "https://becoolachouston.com/?utm_source=google&utm_medium=organic&utm_campaign=gbp-listing",
    "rating": 5,
    "reviews": 533,
    "lat": 29.890487,
    "lng": -95.64016769999999,
    "types": "establishment, general_contractor, point_of_interest"
  },
  {
    "place_id": "ChIJdfHZ3mxpkk8RjzKMX4A1rsk",
    "name": "Ace Comfort Air Conditioning & Heating",
    "address": "601 Milwaukee St, Houston, TX 77009, USA",
    "phone": "(281) 658-5141",
    "website": "http://www.acecomfort-tx.com/",
    "rating": 4.9,
    "reviews": 191,
    "lat": 29.8096381,
    "lng": -95.3636446,
    "types": "establishment, general_contractor, point_of_interest"
  },
  {
    "place_id": "ChIJW4070b_XQIYRplDxUaCkqBE",
    "name": "All American AC & Heating, LLC.",
    "address": "17430 W Little York Rd Ste h, Houston, TX 77084, USA",
    "phone": "(281) 968-4505",
    "website": "https://allamericanacandheat.com/",
    "rating": 4.8,
    "reviews": 955,
    "lat": 29.8658183,
    "lng": -95.6734468,
    "types": "establishment, general_contractor, point_of_interest"
  },
  {
    "place_id": "ChIJXRofe_zDQIYR2lK0EzCwVqw",
    "name": "Hage Energy",
    "address": "5773 Woodway Dr # 217, Houston, TX 77057, USA",
    "phone": "(713) 560-0600",
    "website": "https://www.hagenrg.com/",
    "rating": 5,
    "reviews": 202,
    "lat": 29.7598027,
    "lng": -95.48245240000001,
    "types": "establishment, general_contractor, point_of_interest"
  },
  {
    "place_id": "ChIJ1-SV6ZXGQIYRVNPv_nfwLO8",
    "name": "AIRTEAM Heating & Cooling",
    "address": "6119 Westview Dr, Houston, TX 77055, USA",
    "phone": "(713) 936-5346",
    "website": "http://www.airteamltd.com/",
    "rating": 4.8,
    "reviews": 1365,
    "lat": 29.793764,
    "lng": -95.46086249999999,
    "types": "establishment, general_contractor, point_of_interest"
  },
  {
    "place_id": "ChIJJc3DhSXRQIYRoOuqUEW_gaE",
    "name": "Royal Air Houston",
    "address": "12519 FM 529, Houston, TX 77041, USA",
    "phone": "(832) 334-5959",
    "website": "https://www.royalairhouston.com/",
    "rating": 4.6,
    "reviews": 7998,
    "lat": 29.8794469,
    "lng": -95.598489,
    "types": "establishment, general_contractor, point_of_interest"
  },
  {
    "place_id": "ChIJlfAYvV6_QIYRkfOWNcGI130",
    "name": "AAD Heating & Air Conditioning",
    "address": "440 Louisiana St, Houston, TX 77002, USA",
    "phone": "(713) 379-1862",
    "website": "https://aadheatingairconditioning.xyz/",
    "rating": 5,
    "reviews": 45,
    "lat": 29.7627108,
    "lng": -95.3646818,
    "types": "establishment, general_contractor, point_of_interest"
  },
  {
    "place_id": "ChIJwU60ZGLHQIYRAuHH2xfrQkY",
    "name": "Just-N-Time AC and Heating",
    "address": "2219 W 34th St # A1, Houston, TX 77018, USA",
    "phone": "(281) 908-4602",
    "website": "https://www.justintimeaircondition.com/?utm_source=google&utm_medium=business_profile&utm_campaign=website",
    "rating": 4.9,
    "reviews": 390,
    "lat": 29.8170222,
    "lng": -95.4409589,
    "types": "establishment, general_contractor, point_of_interest"
  },
  {
    "place_id": "ChIJM6pjpP6XQIYRuYFT4xuFWIk",
    "name": "Valderrama A/C & Refrigeration",
    "address": "1212 Illinois St, South Houston, TX 77587, USA",
    "phone": "(281) 942-6587",
    "website": "https://www.valderramainc.com/",
    "rating": 4.8,
    "reviews": 293,
    "lat": 29.6557924,
    "lng": -95.2433499,
    "types": "establishment, general_contractor, point_of_interest"
  },
  {
    "place_id": "ChIJc48_TGrHQIYRiWl40K2R6Xo",
    "name": "Nick's Plumbing & Air Conditioning",
    "address": "3780 Yale St, Houston, TX 77018, USA",
    "phone": "(281) 406-3336",
    "website": "https://www.nicksplumbing.com/?utm_source=organic&utm_medium=gbp&utm_campaign=local",
    "rating": 4.7,
    "reviews": 3829,
    "lat": 29.8200218,
    "lng": -95.39895489999999,
    "types": "establishment, general_contractor, plumber, point_of_interest"
  },
  {
    "place_id": "ChIJVYm-mSvbQIYRup3HJRtJfOA",
    "name": "Cool Care Heating and Air Conditioning",
    "address": "2015 Bauer Dr, Houston, TX 77080, USA",
    "phone": "(713) 979-5132",
    "website": "https://www.coolcareac.com/?utm_source=gbp&utm_medium=organic",
    "rating": 5,
    "reviews": 329,
    "lat": 29.8086809,
    "lng": -95.5190939,
    "types": "establishment, general_contractor, point_of_interest"
  },
  {
    "place_id": "ChIJQ7J0M-DFQIYRskiRnGaPwQE",
    "name": "Luke's Plumbing & Air Conditioning",
    "address": "3548 E T C Jester Blvd, Houston, TX 77018, USA",
    "phone": "(713) 728-6761",
    "website": "https://calllukes.com/?utm_source=google&utm_medium=gbp",
    "rating": 4.8,
    "reviews": 243,
    "lat": 29.8189452,
    "lng": -95.4409482,
    "types": "establishment, general_contractor, plumber, point_of_interest"
  },
  {
    "place_id": "ChIJqWjtajPDQIYRdQ9z_8KJ_04",
    "name": "Smart Air",
    "address": "12455 Westpark Dr Unit G3, Houston, TX 77082, USA",
    "phone": "(281) 730-8096",
    "website": "https://www.houstonsmartair.com/",
    "rating": 4.9,
    "reviews": 147,
    "lat": 29.7227067,
    "lng": -95.603476,
    "types": "establishment, general_contractor, point_of_interest"
  },
  {
    "place_id": "ChIJU2NZj3SxQIYRO_kjbMntC8A",
    "name": "EZ Comfort Air Conditioning & Heating",
    "address": "7575 Charpiot Ln, Humble, TX 77396, USA",
    "phone": "(832) 225-3738",
    "website": "https://www.ezcomfortac.com/",
    "rating": 4.9,
    "reviews": 993,
    "lat": 29.9511426,
    "lng": -95.2730557,
    "types": "establishment, general_contractor, point_of_interest"
  },
  {
    "place_id": "ChIJv-Dq0-iVQIYRpNMdbvRcWn0",
    "name": "Blueleaf Air Conditioning & Heating",
    "address": "5503 Almeda Rd, Houston, TX 77004, USA",
    "phone": "(713) 295-9728",
    "website": "https://callblueleafhvac.com/",
    "rating": 4.7,
    "reviews": 89,
    "lat": 29.7201674,
    "lng": -95.3791107,
    "types": "establishment, general_contractor, point_of_interest"
  },
  {
    "place_id": "ChIJ33BdiNbDQIYRoznn0gFXVPE",
    "name": "Comfort Star Ac Repair",
    "address": "9319 Long Point Rd, Houston, TX 77055, USA",
    "phone": "(713) 999-1900",
    "website": "https://www.comfortstaracrepairhouston.com/",
    "rating": 4.9,
    "reviews": 382,
    "lat": 29.7984519,
    "lng": -95.5211746,
    "types": "establishment, general_contractor, point_of_interest"
  },
  {
    "place_id": "ChIJI8khTDHbQIYRJJCMf2kakx4",
    "name": "Church Service Experts",
    "address": "4250 N Sam Houston Pkwy E Suite 130, Houston, TX 77032, USA",
    "phone": "(713) 722-5000",
    "website": "https://www.churchservices.com/?utm_source=google-business-profile&utm_medium=organic&utm_campaign=business-listing&utm_content=church",
    "rating": 4.8,
    "reviews": 3510,
    "lat": 29.9384103,
    "lng": -95.32421699999999,
    "types": "establishment, general_contractor, plumber, point_of_interest, store"
  },
  {
    "place_id": "ChIJCxGjwATrQIYRtxlkL2tIM9w",
    "name": "Air-Ton Heating and AC",
    "address": "4102 Dawn, Houston, TX 77025, USA",
    "phone": "(713) 661-2760",
    "website": "https://airtonheatingac.com/?utm_source=organic&utm_medium=website-link&utm_id=google-business-listing",
    "rating": 5,
    "reviews": 175,
    "lat": 29.6603242,
    "lng": -95.44441859999999,
    "types": "establishment, general_contractor, point_of_interest, store"
  },
  {
    "place_id": "ChIJ7wzwOyq_QIYRNLIuGt0ejA0",
    "name": "Ethan Clark Air Conditioning",
    "address": "1320 Rothwell St, Houston, TX 77002, USA",
    "phone": "(713) 236-1119",
    "website": "http://www.ethanclark.com/",
    "rating": 5,
    "reviews": 169,
    "lat": 29.7686692,
    "lng": -95.3536644,
    "types": "establishment, general_contractor, point_of_interest"
  },
  {
    "place_id": "ChIJdwLISKraQIYRZSnde9fD4Vg",
    "name": "Uptown Heating & Air Conditioning",
    "address": "11211 Richmond Ave. Suite B102, Houston, TX 77082, USA",
    "phone": "(832) 709-0236",
    "website": "https://www.uptownac.com/",
    "rating": 4.8,
    "reviews": 2219,
    "lat": 29.7265181,
    "lng": -95.57399389999999,
    "types": "establishment, general_contractor, point_of_interest"
  },
  {
    "place_id": "ChIJPawSHoe2lCURfj8wCEHIcO8",
    "name": "Houston HVAC",
    "address": "7629 Elm St, Houston, TX 77023, USA",
    "phone": "(346) 772-7120",
    "website": "http://www.callhoustonhvac.com/",
    "rating": 4.9,
    "reviews": 35,
    "lat": 29.7220723,
    "lng": -95.2906253,
    "types": "establishment, general_contractor, point_of_interest"
  },
  {
    "place_id": "ChIJWbZKNP_PQIYRoKwv5DILml4",
    "name": "ARS / Rescue Rooter",
    "address": "10515 Okanella St STE 100, Houston, TX 77041, USA",
    "phone": "(713) 428-2700",
    "website": "https://www.ars.com/houston?utm_source=google&utm_medium=gbp&utm_campaign=local_seo&utm_content=gbp_website_click",
    "rating": 4.6,
    "reviews": 10865,
    "lat": 29.8583368,
    "lng": -95.5565833,
    "types": "electrician, establishment, general_contractor, plumber, point_of_interest"
  },
  {
    "place_id": "ChIJk59y2MqwQIYRKzRsJfjETAI",
    "name": "Air Dynasty AC & Heating LLC",
    "address": "5502 Northington St, Houston, TX 77039, USA",
    "phone": "(281) 227-5858",
    "website": "https://airdynastyac.com/?utm_source=google&utm_medium=gbp&se_campaign=GBP",
    "rating": 4.7,
    "reviews": 2561,
    "lat": 29.8934019,
    "lng": -95.3095828,
    "types": "establishment, general_contractor, point_of_interest"
  },
  {
    "place_id": "ChIJz_aY7fnAQIYRzGEWJDvouAs",
    "name": "A1 Plus Electrical, Plumbing and Air",
    "address": "15110 Northwest Fwy #130, Houston, TX 77040, USA",
    "phone": "(346) 553-1200",
    "website": "http://www.a1plus.com/?utm_source=google&utm_medium=social&utm_campaign=1seo_gbp",
    "rating": 4.8,
    "reviews": 4313,
    "lat": 29.87221809999999,
    "lng": -95.55074979999999,
    "types": "electrician, establishment, general_contractor, plumber, point_of_interest, store"
  },
  {
    "place_id": "ChIJTboEE5HHQIYRC3kz8bbHJqs",
    "name": "Central City Air",
    "address": "520 Thornton Rd, Houston, TX 77018, USA",
    "phone": "(713) 861-1977",
    "website": "https://centralcityair.com/",
    "rating": 4.9,
    "reviews": 294,
    "lat": 29.8330005,
    "lng": -95.40813490000001,
    "types": "establishment, general_contractor, point_of_interest"
  },
  {
    "place_id": "ChIJMwJj3EPDQIYR6W8zWU0LpZU",
    "name": "Air Current AC & Heat, LLC",
    "address": "8703 Bonhomme Rd, Houston, TX 77074, USA",
    "phone": "(713) 459-2971",
    "website": "https://www.aircurrenthouston.com/",
    "rating": 5,
    "reviews": 142,
    "lat": 29.6835398,
    "lng": -95.5125013,
    "types": "establishment, general_contractor, point_of_interest"
  },
  {
    "place_id": "ChIJY1vKQ68nQYYRZ6TsIF9vLP0",
    "name": "Morgan Pro Services",
    "address": "5200 Mitchelldale St Ste. F26, Houston, TX 77092, USA",
    "phone": "(713) 466-7426",
    "website": "https://www.morganproservices.com/",
    "rating": 4.9,
    "reviews": 115,
    "lat": 29.8142402,
    "lng": -95.4654991,
    "types": "electrician, establishment, general_contractor, point_of_interest, store"
  },
  {
    "place_id": "ChIJXcDreE_bQIYRs6SxQ6T7sJg",
    "name": "Air-32",
    "address": "10801 Hammerly Blvd Ste 242, Houston, TX 77043, USA",
    "phone": "(281) 559-5555",
    "website": "https://air-32.com/",
    "rating": 5,
    "reviews": 256,
    "lat": 29.8115415,
    "lng": -95.5683396,
    "types": "establishment, general_contractor, point_of_interest"
  },
  {
    "place_id": "ChIJSV2VEnG_QIYRJU8_SW-yDYM",
    "name": "Baker-Jones Co. Inc",
    "address": "6314 St Augustine St, Houston, TX 77021, USA",
    "phone": "(713) 529-3418",
    "website": "http://baker-jones.com/",
    "rating": 5,
    "reviews": 164,
    "lat": 29.6973266,
    "lng": -95.3569617,
    "types": "establishment, general_contractor, point_of_interest"
  },
  {
    "place_id": "ChIJlR2T4tCTQIYRTUtadtFkD4c",
    "name": "Dalton Air Conditioning & Heating",
    "address": "5410 Brookside Rd, Pearland, TX 77581, USA",
    "phone": "(713) 433-4380",
    "website": "https://www.daltonairandheat.com/?utm_source=google&utm_medium=organic&utm_campaign=gbp",
    "rating": 4.9,
    "reviews": 499,
    "lat": 29.5878019,
    "lng": -95.33040369999999,
    "types": "establishment, general_contractor, point_of_interest"
  },
  {
    "place_id": "ChIJ__-v1WjGQIYRjGmVNrXpx9U",
    "name": "75 Degree AC- Houston",
    "address": "4800 W 34th St C50F, Houston, TX 77092, USA",
    "phone": "(713) 598-2737",
    "website": "https://75degreeac.com/",
    "rating": 5,
    "reviews": 205,
    "lat": 29.8199977,
    "lng": -95.46041869999999,
    "types": "establishment, general_contractor, point_of_interest"
  },
  {
    "place_id": "ChIJC_jKo-u4QIYRQZhvpmEBbAY",
    "name": "Bayou City Aire, LLC",
    "address": "1205 North Loop, Houston, TX 77022, USA",
    "phone": "(713) 568-9437",
    "website": "http://www.bayoucityac.com/",
    "rating": 4.9,
    "reviews": 63,
    "lat": 29.8147425,
    "lng": -95.38381659999999,
    "types": "establishment, general_contractor, point_of_interest"
  },
  {
    "place_id": "ChIJnfeXroW4QIYRsqBXVBaE_Dw",
    "name": "ASAP AIR A/C and Heating",
    "address": "1009 Aurora St, Houston, TX 77009, USA",
    "phone": "(713) 862-1775",
    "website": "https://www.asapairhoustonac.com/",
    "rating": 5,
    "reviews": 43,
    "lat": 29.8100587,
    "lng": -95.3856914,
    "types": "establishment, general_contractor, point_of_interest, store"
  },
  {
    "place_id": "ChIJF5N13qHdQIYRxTpv4dm2UxQ",
    "name": "Air Rey - Houston",
    "address": "6529 Cunningham Rd #2001, Houston, TX 77041, USA",
    "phone": "(832) 917-0365",
    "website": "https://www.airreyservice.com/service-areas/houston",
    "rating": 4.6,
    "reviews": 856,
    "lat": 29.863974,
    "lng": -95.582323,
    "types": "establishment, general_contractor, point_of_interest"
  },
  {
    "place_id": "ChIJXRu_67zDQIYREWrJa0XRNBM",
    "name": "American HVAC Staff LLC",
    "address": "4906 Cedar Hill Ln, Houston, TX 77093, USA",
    "phone": "(713) 517-2832",
    "website": "http://www.americanhvacstaff.com/",
    "rating": 5,
    "reviews": 14,
    "lat": 29.8759157,
    "lng": -95.3171418,
    "types": "establishment, general_contractor, point_of_interest"
  },
  {
    "place_id": "ChIJexRarKAzR4YRti-NeUsq5Ww",
    "name": "The Chill Brothers",
    "address": "6465 Farm to Market 2920, Spring, TX 77379, USA",
    "phone": "(844) 512-4455",
    "website": "https://thechillbrothers.com/ac-installation-and-services-in-spring-tx/",
    "rating": 4.6,
    "reviews": 1338,
    "lat": 30.0734923,
    "lng": -95.5223728,
    "types": "establishment, general_contractor, point_of_interest, store"
  },
  {
    "place_id": "ChIJG67nRWPBQIYR3PGXl_xbKf8",
    "name": "Newmark Air Conditioning",
    "address": "2925 Richmond Ave., Houston, TX 77098, USA",
    "phone": "(713) 804-2121",
    "website": "http://www.newmarkac.com/",
    "rating": 5,
    "reviews": 31,
    "lat": 29.7334656,
    "lng": -95.4227762,
    "types": "establishment, general_contractor, point_of_interest"
  },
  {
    "place_id": "ChIJVSm9FRPGQIYR0e78vQEZ26s",
    "name": "Environmental Air Systems Inc",
    "address": "4913 Mangum Rd, Houston, TX 77092, USA",
    "phone": "(713) 680-3274",
    "website": "http://www.environmentalair.com/",
    "rating": 5,
    "reviews": 72,
    "lat": 29.8397969,
    "lng": -95.4635901,
    "types": "establishment, general_contractor, point_of_interest"
  },
  {
    "place_id": "ChIJTSEwxSyxQIYRf1xSm0sVRH4",
    "name": "Windsanity Mini Split",
    "address": "6338 Guadalupe St, Houston, TX 77016, USA",
    "phone": "(402) 613-5142",
    "website": "https://www.windsanity-mini-spli.com/",
    "rating": 4.9,
    "reviews": 170,
    "lat": 29.8830083,
    "lng": -95.29426169999999,
    "types": "establishment, general_contractor, point_of_interest"
  }
]